[{"business_status":"OPERATIONAL","geometry":{"location":{"lat":37.7837857,"lng":-122.4321479},"viewport":{"northeast":{"lat":37.78507612989272,"lng":-122.4307097701073},"southwest":{"lat":37.78237647010727,"lng":-122.4334094298927}}},"icon":"https://maps.gstatic.com/mapfiles/place_api/icons/v1/png_71/generic_business-71.png","icon_background_color":"#7B9EB0","icon_mask_base_uri":"https://maps.gstatic.com/mapfiles/place_api/icons/v2/generic_pinlet","name":"Success Centers - The Career Center","opening_hours":{"open_now":false},"photos":[{"height":720,"html_attributions":["<a href=\"https://maps.google.com/maps/contrib/116378404597280305018\">A Google User</a>"],"photo_reference":"AelY_CvNmT4GyrkzLTLpG7jz5SFCK8089J1cJJpSnJ56B-ELIYcF2Y81N-6IHgdIXCJ3C7ek0xu-rsUgm_GLp8WYK8uMCHcx7CRx74bj80YIkJtwGgVyZM0AdZdK_GEQxTCxpoiOCV8_9xn4EjaonGh_bAEjKrBZoB--UqxVLA9pSwxitsoY","width":960}],"place_id":"ChIJjcOdLeF9j4ARWvRf1X_f2Z4","plus_code":{"compound_code":"QHM9+G4 Japantown, San Francisco, CA","global_code":"849VQHM9+G4"},"rating":4.7,"reference":"ChIJjcOdLeF9j4ARWvRf1X_f2Z4","scope":"GOOGLE","types":["point_of_interest","establishment"],"user_ratings_total":22,"vicinity":"1449 Webster St, San Francisco"},{"business_status":"OPERATIONAL","geometry":{"location":{"lat":37.764063,"lng":-122.4185014},"viewport":{"northeast":{"lat":37.76540942989271,"lng":-122.4172087201072},"southwest":{"lat":37.76270977010727,"lng":-122.4199083798927}}},"icon":"https://maps.gstatic.com/mapfiles/place_api/icons/v1/png_71/generic_business-71.png","icon_background_color":"#7B9EB0","icon_mask_base_uri":"https://maps.gstatic.com/mapfiles/place_api/icons/v2/generic_pinlet","name":"Mission Neighborhood Resource Center","opening_hours":{"open_now":false},"photos":[{"height":1152,"html_attributions":["<a href=\"https://maps.google.com/maps/contrib/103814051022694015744\">Milton Lau</a>"],"photo_reference":"AelY_Ctg_zesYBRU6Fh8PmeKT2gaPTN1gYPJBvZmBUhwYN0dsaytBrbmCF_mFivwhdtEOw66bFVmDap_8xKiREuxzF2NPdbQiuKz1Jm0tPyvb-XgniMdPDox_3EEx75tBKI_rKv6L0PGIGEiFtfVt-EtjECdcpWYbV8onmDiqLtxD0ch4Ad_","width":1920}],"place_id":"ChIJL819YCN-j4ARMVIdUjtxiv0","plus_code":{"compound_code":"QH7J+JJ Mission District, San Francisco, CA","global_code":"849VQH7J+JJ"},"rating":4,"reference":"ChIJL819YCN-j4ARMVIdUjtxiv0","scope":"GOOGLE","types":["health","point_of_interest","establishment"],"user_ratings_total":127,"vicinity":"165 Capp St, San Francisco"},{"business_status":"OPERATIONAL","geometry":{"location":{"lat":37.7777275,"lng":-122.3997819},"viewport":{"northeast":{"lat":37.77898012989272,"lng":-122.3985263201073},"southwest":{"lat":37.77628047010728,"lng":-122.4012259798927}}},"icon":"https://maps.gstatic.com/mapfiles/place_api/icons/v1/png_71/generic_business-71.png","icon_background_color":"#7B9EB0","icon_mask_base_uri":"https://maps.gstatic.com/mapfiles/place_api/icons/v2/generic_pinlet","name":"MSC Homeless Shelter","opening_hours":{"open_now":true},"photos":[{"height":3024,"html_attributions":["<a href=\"https://maps.google.com/maps/contrib/103046252981122865060\">Azat Omirgali</a>"],"photo_reference":"AelY_CsbIU_9eiGF6fOsN6C7BQtRLw2ywtteW6l-_djJNiVtgK9l0fA2w-LAFh39Hx2GptsjWEzYLSyGm7tNOxlw_qQ6MdSSBq1wQN7aeKkbBqFogPif1R8G9g8Cg7BVauwEVK_sv3ByZYFawocbpVSVM14fbsJJAZ1L0HdQdSEOKcjoyFz6","width":4032}],"place_id":"ChIJyTdZXtV_j4AR5QrKZR9GO0k","plus_code":{"compound_code":"QJH2+33 SoMa, San Francisco, CA","global_code":"849VQJH2+33"},"rating":3.5,"reference":"ChIJyTdZXtV_j4AR5QrKZR9GO0k","scope":"GOOGLE","types":["point_of_interest","establishment"],"user_ratings_total":181,"vicinity":"525 5th St, San Francisco"},{"business_status":"OPERATIONAL","geometry":{"location":{"lat":37.7702876,"lng":-122.4440541},"viewport":{"northeast":{"lat":37.77168237989272,"lng":-122.4427784701073},"southwest":{"lat":37.76898272010728,"lng":-122.4454781298927}}},"icon":"https://maps.gstatic.com/mapfiles/place_api/icons/v1/png_71/generic_business-71.png","icon_background_color":"#7B9EB0","icon_mask_base_uri":"https://maps.gstatic.com/mapfiles/place_api/icons/v2/generic_pinlet","name":"Haight Street Referral Center","opening_hours":{"open_now":false},"photos":[{"height":528,"html_attributions":["<a href=\"https://maps.google.com/maps/contrib/100590602844351182656\">A Google User</a>"],"photo_reference":"AelY_CvdzAYpBeMbbazilKFEh-lCyNmA2VBqhWl5BTWVPToWTYjCrQBfQ3JKz2voa3jbsBj2Bcj1tdUSwIMq2ozaoysmOeYq6FkEv3Y2IBOhBJ37p-5D2ajNH0wI_9KooJz3jxaqUI1OPaXhx0lTMJ8tuEnzc2SDPHIq9N5Rt5P4LM6AuhVm","width":1024}],"place_id":"ChIJZUBNiqyAhYARSmz8fd6wn7I","plus_code":{"compound_code":"QHC4+49 Haight-Ashbury, San Francisco, CA","global_code":"849VQHC4+49"},"rating":4.6,"reference":"ChIJZUBNiqyAhYARSmz8fd6wn7I","scope":"GOOGLE","types":["point_of_interest","establishment"],"user_ratings_total":20,"vicinity":"1317 Haight St, San Francisco"},{"business_status":"OPERATIONAL","geometry":{"location":{"lat":37.7770343,"lng":-122.4135179},"viewport":{"northeast":{"lat":37.77842592989272,"lng":-122.4122203701072},"southwest":{"lat":37.77572627010728,"lng":-122.4149200298927}}},"icon":"https://maps.gstatic.com/mapfiles/place_api/icons/v1/png_71/generic_business-71.png","icon_background_color":"#7B9EB0","icon_mask_base_uri":"https://maps.gstatic.com/mapfiles/place_api/icons/v2/generic_pinlet","name":"Career Center","place_id":"ChIJaWR2xZyAhYAR0Yjn66TyGDE","plus_code":{"compound_code":"QHGP+RH SoMa, San Francisco, CA","global_code":"849VQHGP+RH"},"rating":0,"reference":"ChIJaWR2xZyAhYAR0Yjn66TyGDE","scope":"GOOGLE","types":["point_of_interest","establishment"],"user_ratings_total":0,"vicinity":"1221 Mission St, San Francisco"},{"business_status":"OPERATIONAL","geometry":{"location":{"lat":37.7825158,"lng":-122.4138827},"viewport":{"northeast":{"lat":37.78386322989272,"lng":-122.4125917701073},"southwest":{"lat":37.78116357010728,"lng":-122.4152914298927}}},"icon":"https://maps.gstatic.com/mapfiles/place_api/icons/v1/png_71/generic_business-71.png","icon_background_color":"#7B9EB0","icon_mask_base_uri":"https://maps.gstatic.com/mapfiles/place_api/icons/v2/generic_pinlet","name":"Hospitality House Shelter","opening_hours":{"open_now":true},"place_id":"ChIJSWTtu5qAhYARWsLhsQaapdk","plus_code":{"compound_code":"QHMP+2F Tenderloin, San Francisco, CA","global_code":"849VQHMP+2F"},"rating":4.3,"reference":"ChIJSWTtu5qAhYARWsLhsQaapdk","scope":"GOOGLE","types":["point_of_interest","establishment"],"user_ratings_total":17,"vicinity":"146 Leavenworth St, San Francisco"},{"business_status":"OPERATIONAL","geometry":{"location":{"lat":37.77762990000001,"lng":-122.3998674},"viewport":{"northeast":{"lat":37.77898012989272,"lng":-122.3985263201073},"southwest":{"lat":37.77628047010728,"lng":-122.4012259798927}}},"icon":"https://maps.gstatic.com/mapfiles/place_api/icons/v1/png_71/generic_business-71.png","icon_background_color":"#7B9EB0","icon_mask_base_uri":"https://maps.gstatic.com/mapfiles/place_api/icons/v2/generic_pinlet","name":"MULTI-SERVICE CENTER SOUTH","place_id":"ChIJAQDwZtV_j4ARWW61JTI5SmE","plus_code":{"compound_code":"QJH2+33 SoMa, San Francisco, CA","global_code":"849VQJH2+33"},"rating":3,"reference":"ChIJAQDwZtV_j4ARWW61JTI5SmE","scope":"GOOGLE","types":["health","point_of_interest","establishment"],"user_ratings_total":1,"vicinity":"525 5th St, San Francisco"},{"business_status":"OPERATIONAL","geometry":{"location":{"lat":37.7741779,"lng":-122.4202266},"viewport":{"northeast":{"lat":37.77544282989272,"lng":-122.4188427701073},"southwest":{"lat":37.77274317010728,"lng":-122.4215424298927}}},"icon":"https://maps.gstatic.com/mapfiles/place_api/icons/v1/png_71/generic_business-71.png","icon_background_color":"#7B9EB0","icon_mask_base_uri":"https://maps.gstatic.com/mapfiles/place_api/icons/v2/generic_pinlet","name":"Navigation Center","photos":[{"height":1800,"html_attributions":["<a href=\"https://maps.google.com/maps/contrib/116407099115299360623\">Kathiia Gonzalez</a>"],"photo_reference":"AelY_CuDUaB_9Rn4O8EDuuupZC3RG5cymojE_LWXF1IIWdNROdgiyipn3NAGW74xuohXUtx6yifFZb1sz-crmQIeicGjYjsMyQStnH5-3D8NMwZabDWKZqdI9Stsh0J8VjECUv2RDF34sdu2ymYZQjhcI62P-FYBuVlCFh-H-sJoHU9yBGx6","width":4000}],"place_id":"ChIJSy_UXZ6AhYARFCTvV049q_s","plus_code":{"compound_code":"QHFJ+H2 SoMa, San Francisco, CA","global_code":"849VQHFJ+H2"},"rating":3.3,"reference":"ChIJSy_UXZ6AhYARFCTvV049q_s","scope":"GOOGLE","types":["point_of_interest","establishment"],"user_ratings_total":44,"vicinity":"20 12th St, San Francisco"},{"business_status":"OPERATIONAL","geometry":{"location":{"lat":37.7857156,"lng":-122.3886351},"viewport":{"northeast":{"lat":37.78698447989272,"lng":-122.3873755701073},"southwest":{"lat":37.78428482010727,"lng":-122.3900752298927}}},"icon":"https://maps.gstatic.com/mapfiles/place_api/icons/v1/png_71/generic_business-71.png","icon_background_color":"#7B9EB0","icon_mask_base_uri":"https://maps.gstatic.com/mapfiles/place_api/icons/v2/generic_pinlet","name":"Embarcadero SAFE Navigation Center","photos":[{"height":712,"html_attributions":["<a href=\"https://maps.google.com/maps/contrib/110908911935353215661\">Sherwin Karunungan</a>"],"photo_reference":"AelY_Cv-ECEpTRAp2NSR0adaTRHyC8wjFeELQn2PGS5-QTAkXovVZTN234rAPyIyyk9WHa61_aOX6kMhFe594OEMS1v700EZyXjBHgLaGDqee78t2yeUCNRYf-K7FECPlyPKelQAsiWXkBb5rfDbYboAz2h1cNv1x3cRoXf2yshy-WRroX4Y","width":1200}],"place_id":"ChIJzUuWFQeBhYARwLAV22pWtRY","plus_code":{"compound_code":"QJP6+7G South Beach, San Francisco, CA","global_code":"849VQJP6+7G"},"rating":3.9,"reference":"ChIJzUuWFQeBhYARwLAV22pWtRY","scope":"GOOGLE","types":["point_of_interest","establishment"],"user_ratings_total":23,"vicinity":"555 Beale St, San Francisco"},{"business_status":"OPERATIONAL","geometry":{"location":{"lat":37.7727352,"lng":-122.4148303},"viewport":{"northeast":{"lat":37.77410467989272,"lng":-122.4135052701072},"southwest":{"lat":37.77140502010727,"lng":-122.4162049298927}}},"icon":"https://maps.gstatic.com/mapfiles/place_api/icons/v1/png_71/civic_building-71.png","icon_background_color":"#7B9EB0","icon_mask_base_uri":"https://maps.gstatic.com/mapfiles/place_api/icons/v2/civic-bldg_pinlet","name":"Comprehensive Access Point (Westside Community Services)","place_id":"ChIJu5GckCd-j4AR6Mat11VrqVE","plus_code":{"compound_code":"QHFP+33 SoMa, San Francisco, CA","global_code":"849VQHFP+33"},"rating":0,"reference":"ChIJu5GckCd-j4AR6Mat11VrqVE","scope":"GOOGLE","types":["point_of_interest","establishment"],"user_ratings_total":0,"vicinity":"99 Kissling St, San Francisco"},{"business_status":"OPERATIONAL","geometry":{"location":{"lat":37.7817576,"lng":-122.413719},"viewport":{"northeast":{"lat":37.78317527989272,"lng":-122.4123872201072},"southwest":{"lat":37.78047562010728,"lng":-122.4150868798927}}},"icon":"https://maps.gstatic.com/mapfiles/place_api/icons/v1/png_71/generic_business-71.png","icon_background_color":"#7B9EB0","icon_mask_base_uri":"https://maps.gstatic.com/mapfiles/place_api/icons/v2/generic_pinlet","name":"Lutheran Social Services","opening_hours":{"open_now":false},"photos":[{"height":2448,"html_attributions":["<a href=\"https://maps.google.com/maps/contrib/116345860701275350266\">Sandra Bacon</a>"],"photo_reference":"AelY_CvK_iSB-zE_D2yCIUeaSNozGj6QKalV3LdATmvAtg19y2G2fD57R-DyucZFRip7zfYxopnokZK1rV3g_d0XeCsmE21kZpwitP4zh5-w3MyMILrcqG2WOdZeSeacCPMTD4Qtz8rbSvO6zfcsv9df3j2Mntk3k3S2tJNUk30ytDD863MT","width":3264}],"place_id":"ChIJE8SjxpqAhYARBtpzYjYEexU","plus_code":{"compound_code":"QHJP+PG Tenderloin, San Francisco, CA","global_code":"849VQHJP+PG"},"rating":4,"reference":"ChIJE8SjxpqAhYARBtpzYjYEexU","scope":"GOOGLE","types":["point_of_interest","establishment"],"user_ratings_total":76,"vicinity":"191 Golden Gate Ave, San Francisco"},{"business_status":"OPERATIONAL","geometry":{"location":{"lat":37.7695581,"lng":-122.4183665},"viewport":{"northeast":{"lat":37.77101717989272,"lng":-122.4170536201073},"southwest":{"lat":37.76831752010728,"lng":-122.4197532798927}}},"icon":"https://maps.gstatic.com/mapfiles/place_api/icons/v1/png_71/generic_business-71.png","icon_background_color":"#7B9EB0","icon_mask_base_uri":"https://maps.gstatic.com/mapfiles/place_api/icons/v2/generic_pinlet","name":"Division Circle Navigation Center","opening_hours":{"open_now":false},"photos":[{"height":3024,"html_attributions":["<a href=\"https://maps.google.com/maps/contrib/101061791623732704611\">A Google User</a>"],"photo_reference":"AelY_CsHO5NQS3BrTHn79x-SfOCNjlQ_9AYuqbbU20AgKBECWBkS-1mdYCZD7WlnqIa9k-pphyRMnGXHbmLQ9z6fSrBNtUMJKoJOWRWqhiP64rl4ZQr4BYU-4DHnCeBCYEt-_rKPxjaO5ejgaJ3wG3g59gXAwlBm-TqzFpwZsra27OlJkQfI","width":4032}],"place_id":"ChIJdVZxBrJ_j4AR8VYCihl0sWc","plus_code":{"compound_code":"QH9J+RM Mission District, San Francisco, CA","global_code":"849VQH9J+RM"},"rating":3.7,"reference":"ChIJdVZxBrJ_j4AR8VYCihl0sWc","scope":"GOOGLE","types":["point_of_interest","establishment"],"user_ratings_total":31,"vicinity":"224 S Van Ness Ave, San Francisco"},{"business_status":"OPERATIONAL","geometry":{"location":{"lat":37.7842721,"lng":-122.4230202},"viewport":{"northeast":{"lat":37.78553507989272,"lng":-122.4215476201073},"southwest":{"lat":37.78283542010728,"lng":-122.4242472798928}}},"icon":"https://maps.gstatic.com/mapfiles/place_api/icons/v1/png_71/generic_business-71.png","icon_background_color":"#7B9EB0","icon_mask_base_uri":"https://maps.gstatic.com/mapfiles/place_api/icons/v2/generic_pinlet","name":"Project Homeless Connect","opening_hours":{"open_now":false},"photos":[{"height":3000,"html_attributions":["<a href=\"https://maps.google.com/maps/contrib/110991185657570571001\">A Google User</a>"],"photo_reference":"AelY_CsS-VNp5D6eWRoFSRyJGWWKDuphaRmGVyGbWmFXUOXzozsTgXScB4UmY3ECsnRuLDK1gLDj2iVWCmuRP5jOR_Yy_3drFPR7Sdi83NWorswhcgx3QXZrNdnuMU0qsnkg6_cD9izdMRbUCV44zGr6ghRTxwfj_-X-Jik1gkmUkJObTYkB","width":4000}],"place_id":"ChIJOS1iwJ6AhYARTd9vESZL36Q","plus_code":{"compound_code":"QHMG+PQ Cathedral Hill, San Francisco, CA","global_code":"849VQHMG+PQ"},"rating":4.4,"reference":"ChIJOS1iwJ6AhYARTd9vESZL36Q","scope":"GOOGLE","types":["point_of_interest","establishment"],"user_ratings_total":95,"vicinity":"1031 Franklin St suite 207, San Francisco"},{"business_status":"OPERATIONAL","geometry":{"location":{"lat":37.777628,"lng":-122.412407},"viewport":{"northeast":{"lat":37.77908817989272,"lng":-122.4111957701073},"southwest":{"lat":37.77638852010728,"lng":-122.4138954298927}}},"icon":"https://maps.gstatic.com/mapfiles/place_api/icons/v1/png_71/generic_business-71.png","icon_background_color":"#7B9EB0","icon_mask_base_uri":"https://maps.gstatic.com/mapfiles/place_api/icons/v2/generic_pinlet","name":"Community Forward SF","photos":[{"height":2499,"html_attributions":["<a href=\"https://maps.google.com/maps/contrib/100346258616984930497\">Community Awareness &amp; Treatment Services</a>"],"photo_reference":"AelY_CtIMeLJqVxU1rVoYy3X14dihoPGekkiPtGQ6t7pg2dmPS16LJgMGAF4RePuq5X44WTc6yoyCZ8s0TWI97KszPJ2pF8VX_jI-GQAVlIu2fWyOMoXwOoxSkhduFPlQqmFictmn2od5beDTx8QQK23HvInv8wNtBYfM3IEPFhzYDejCoBG","width":3756}],"place_id":"ChIJ104soJ6AhYARM7FggyaUHqc","plus_code":{"compound_code":"QHHQ+32 SoMa, San Francisco, CA","global_code":"849VQHHQ+32"},"rating":3.5,"reference":"ChIJ104soJ6AhYARM7FggyaUHqc","scope":"GOOGLE","types":["health","point_of_interest","establishment"],"user_ratings_total":12,"vicinity":"1171 Mission St, San Francisco"},{"business_status":"OPERATIONAL","geometry":{"location":{"lat":37.7768028,"lng":-122.4121404},"viewport":{"northeast":{"lat":37.77811777989272,"lng":-122.4108278701073},"southwest":{"lat":37.77541812010728,"lng":-122.4135275298927}}},"icon":"https://maps.gstatic.com/mapfiles/place_api/icons/v1/png_71/generic_business-71.png","icon_background_color":"#7B9EB0","icon_mask_base_uri":"https://maps.gstatic.com/mapfiles/place_api/icons/v2/generic_pinlet","name":"Episcopal Community Services","opening_hours":{"open_now":false},"photos":[{"height":3024,"html_attributions":["<a href=\"https://maps.google.com/maps/contrib/113305919995230455128\">113305919995230455128</a>"],"photo_reference":"AelY_Cs4-TI0hXkpRU52odMYHq6PM8yRbQN8WLf2y0EtU7NsddwEosqRmxYA4Q4zeiOnSG9n9fHCxiPWZb1mA7Oxv_z7halynXZYTC9ud7Q6LwsFPZQy0ucYvuqj0k80TtHw4DVMDDaJMtfpTMQ_MdYZEHzSZ1RZlhZ6nTraQ-In2g6qqa6L","width":4032}],"place_id":"ChIJ7zZq6YKAhYAR_F-2UwJjMzY","plus_code":{"compound_code":"QHGQ+P4 SoMa, San Francisco, CA","global_code":"849VQHGQ+P4"},"rating":3.3,"reference":"ChIJ7zZq6YKAhYAR_F-2UwJjMzY","scope":"GOOGLE","types":["point_of_interest","establishment"],"user_ratings_total":11,"vicinity":"165 8th St, San Francisco"},{"business_status":"OPERATIONAL","geometry":{"location":{"lat":37.7578348,"lng":-122.4213867},"viewport":{"northeast":{"lat":37.75918622989272,"lng":-122.4200024701072},"southwest":{"lat":37.75648657010727,"lng":-122.4227021298927}}},"icon":"https://maps.gstatic.com/mapfiles/place_api/icons/v1/png_71/generic_business-71.png","icon_background_color":"#7B9EB0","icon_mask_base_uri":"https://maps.gstatic.com/mapfiles/place_api/icons/v2/generic_pinlet","name":"Dolores Street Community Services","opening_hours":{"open_now":false},"photos":[{"height":2758,"html_attributions":["<a href=\"https://maps.google.com/maps/contrib/111425077743037478384\">Andrew Conway</a>"],"photo_reference":"AelY_CutRGZ5uxBH3UiCindZd0o3WqR77dInpZfUBB-sUgmVYNvO9lsjMRb3vSy8N3kkAvmLa6Ztvn6SldbJSeBeQEwSWyDWYL75RRp7tQCaicMjOQK65wsudJ_Bliq7ivedmE-8OvZdjHEESho2L2Lf7BEkgKS4M_YEMCgadk9brffeKS0o","width":3357}],"place_id":"ChIJB4VYHjl-j4ARXGHhnipB0mA","plus_code":{"compound_code":"QH5H+4C Dolores Heights, San Francisco, CA","global_code":"849VQH5H+4C"},"rating":4.5,"reference":"ChIJB4VYHjl-j4ARXGHhnipB0mA","scope":"GOOGLE","types":["point_of_interest","establishment"],"user_ratings_total":37,"vicinity":"938 Valencia St, San Francisco"},{"business_status":"OPERATIONAL","geometry":{"location":{"lat":37.7860988,"lng":-122.4199279},"viewport":{"northeast":{"lat":37.78745582989273,"lng":-122.4185375201073},"southwest":{"lat":37.78475617010729,"lng":-122.4212371798928}}},"icon":"https://maps.gstatic.com/mapfiles/place_api/icons/v1/png_71/generic_business-71.png","icon_background_color":"#7B9EB0","icon_mask_base_uri":"https://maps.gstatic.com/mapfiles/place_api/icons/v2/generic_pinlet","name":"Next Door Shelter","photos":[{"height":1363,"html_attributions":["<a href=\"https://maps.google.com/maps/contrib/106247016139742385416\">Episcopal Community Services</a>"],"photo_reference":"AelY_CuNUmUXtekm0DPQTfpOPq2ZHG7CJWb5Jf1u2lrlbA7NvYF_9SBKwOS8C03i31c-YSbU_PSFFU0c_XQxFGCu9IJ-SkE0wO-1rOckITwotLpYlYZV6QAE2t9gs-VWri-ycVWxPyX67K5akDinkFvIfysnzMqR361gj1CEVDBCb3h41AvX","width":2048}],"place_id":"ChIJ8UtpopaAhYARl7nz1jUykTE","plus_code":{"compound_code":"QHPJ+C2 Lower Nob Hill, San Francisco, CA","global_code":"849VQHPJ+C2"},"rating":3.3,"reference":"ChIJ8UtpopaAhYARl7nz1jUykTE","scope":"GOOGLE","types":["point_of_interest","establishment"],"user_ratings_total":176,"vicinity":"1001 Polk St, San Francisco"},{"business_status":"OPERATIONAL","geometry":{"location":{"lat":37.781966,"lng":-122.415002},"viewport":{"northeast":{"lat":37.78320477989271,"lng":-122.4136143701073},"southwest":{"lat":37.78050512010727,"lng":-122.4163140298927}}},"icon":"https://maps.gstatic.com/mapfiles/place_api/icons/v1/png_71/generic_business-71.png","icon_background_color":"#7B9EB0","icon_mask_base_uri":"https://maps.gstatic.com/mapfiles/place_api/icons/v2/generic_pinlet","name":"Hamilton Families | Shelter","photos":[{"height":876,"html_attributions":["<a href=\"https://maps.google.com/maps/contrib/101115345508428944685\">Hamilton Family Residence</a>"],"photo_reference":"AelY_CvFT_N2Xu1gwsbEJftTSJ7qqy6x0wpwTdMJi3ArQlSAtZNqSBCLCYxULy6XOqJ1wo0PRf93-P399Zfb35YwWozYruSKRFheoO5llqGV3J5H4Z6NLTWSWLrqXpE-yWFMeZsOOaCGEH45DAc9l7w6LsVlpA-tcqiuQ0NUEUzAJGVj5heH","width":650}],"place_id":"ChIJBZ2-jZqAhYARF3HDeoypWYk","plus_code":{"compound_code":"QHJM+QX Tenderloin, San Francisco, CA","global_code":"849VQHJM+QX"},"rating":3.5,"reference":"ChIJBZ2-jZqAhYARF3HDeoypWYk","scope":"GOOGLE","types":["point_of_interest","establishment"],"user_ratings_total":56,"vicinity":"260 Golden Gate Ave, San Francisco"},{"business_status":"OPERATIONAL","geometry":{"location":{"lat":37.7713461,"lng":-122.4122508},"viewport":{"northeast":{"lat":37.77257017989272,"lng":-122.4107360201073},"southwest":{"lat":37.76987052010728,"lng":-122.4134356798927}}},"icon":"https://maps.gstatic.com/mapfiles/place_api/icons/v1/png_71/generic_business-71.png","icon_background_color":"#7B9EB0","icon_mask_base_uri":"https://maps.gstatic.com/mapfiles/place_api/icons/v2/generic_pinlet","name":"Human Services Agency of San Francisco","opening_hours":{"open_now":false},"photos":[{"height":4160,"html_attributions":["<a href=\"https://maps.google.com/maps/contrib/116537979570183382733\">A Google User</a>"],"photo_reference":"AelY_CsMCaCwDByYgpfbZl09oFTuTpr5D1kahyR5z-0I9S5UwhIGzE6n2I5FxpU_QC_7yIlsS2YATPP8QUCCOgJzGKVrDUAf2HrQHeEYLuzo-a-DGozRBd6iynIWxehtpiEb3P6BGs4Q9sh-gdQGLNLf1EW0LRdA48FzZKdduMIUxDL5bmmJ","width":3120}],"place_id":"ChIJ4x2Tmih-j4ARXA7M_2G21ZY","plus_code":{"compound_code":"QHCQ+G3 SoMa, San Francisco, CA","global_code":"849VQHCQ+G3"},"rating":3.9,"reference":"ChIJ4x2Tmih-j4ARXA7M_2G21ZY","scope":"GOOGLE","types":["point_of_interest","establishment"],"user_ratings_total":336,"vicinity":"1440 Harrison St, San Francisco"},{"business_status":"OPERATIONAL","geometry":{"location":{"lat":37.7707924,"lng":-122.4209443},"viewport":{"northeast":{"lat":37.77196252989272,"lng":-122.4192035201073},"southwest":{"lat":37.76926287010728,"lng":-122.4219031798927}}},"icon":"https://maps.gstatic.com/mapfiles/place_api/icons/v1/png_71/generic_business-71.png","icon_background_color":"#7B9EB0","icon_mask_base_uri":"https://maps.gstatic.com/mapfiles/place_api/icons/v2/generic_pinlet","name":"San Francisco Human Services Department","opening_hours":{"open_now":false},"photos":[{"height":3264,"html_attributions":["<a href=\"https://maps.google.com/maps/contrib/117285202139149880320\">Jerrod Newkirk</a>"],"photo_reference":"AelY_CtGKHyqtu6r2-zpMh7I8AfmBrkQd5smw-Et1R6gOLSlRCdmJ3fa71PJp7a5BUZVyVbwrlbpYNdFAYnYRTG1uIZOE8_3_ARL6kTO2pVRBjV_GE3p9QgATdThVJKv_rWelq56vr9xOARRFw_JnpAsvK6DZj0JkcDUjqoZTxMjNP2WJYKJ","width":1836}],"place_id":"ChIJ_ZPg2pyAhYAR6S0aC9xI_1Y","plus_code":{"compound_code":"QHCH+8J SoMa, San Francisco, CA","global_code":"849VQHCH+8J"},"rating":4,"reference":"ChIJ_ZPg2pyAhYAR6S0aC9xI_1Y","scope":"GOOGLE","types":["point_of_interest","establishment"],"user_ratings_total":217,"vicinity":"170 Otis St, San Francisco"}]